,City,Country,Date,Lat,Lng,Max Temp,Cloudiness,Humidity,Wind Speed
0,Busselton,AU,1562543766,-33.64,115.35,53.01,53,79,14.67
1,Lavrentiya,RU,1562543818,65.58,-170.99,76.67,9,29,4.29
2,Saskylakh,RU,1562543819,71.97,114.09,55.34,96,67,6.15
3,Altagracia de Orituco,VE,1562543547,9.86,-66.38,69.38,78,99,2.44
4,Yellowknife,CA,1562543821,62.45,-114.38,50.0,90,87,17.22
5,Jamestown,AU,1562543727,-33.21,138.6,49.86,17,82,4.23
6,Kualakapuas,ID,1562543824,-3.01,114.39,73.57,97,85,3.98
7,Lebu,ET,1562543741,8.96,38.73,59.0,75,82,4.7
8,Bluff,AU,1562543826,-23.58,149.07,61.44,100,82,12.5
9,Kupang,ID,1562543828,-10.16,123.6,77.0,20,69,8.05
10,Albany,US,1562543829,42.65,-73.75,78.8,1,60,3.36
11,Mataura,NZ,1562543830,-46.19,168.86,43.0,100,85,14.0
12,Saint Stephen,US,1562543831,45.7,-94.27,84.2,1,42,4.7
13,Bredasdorp,ZA,1562543833,-34.53,20.04,61.0,31,71,10.29
14,Bernalda,IT,1562543834,40.41,16.69,82.99,5,47,9.17
15,Puerto Ayora,EC,1562543836,-0.74,-90.35,80.6,75,61,9.17
16,Butaritari,KI,1562543837,3.07,172.79,80.73,100,83,15.75
17,Arraial do Cabo,BR,1562543838,-22.97,-42.02,64.4,40,72,12.75
18,Lagoa,PT,1562543839,37.14,-8.45,66.99,0,77,9.17
19,Georgetown,GY,1562543838,6.8,-58.16,82.4,40,78,6.93
20,Codrington,AU,1562543842,-28.95,153.24,60.8,75,82,4.7
21,Faanui,PF,1562543843,-16.48,-151.75,79.06,81,84,14.56
22,East London,ZA,1562543820,-33.02,27.91,49.67,0,78,8.1
23,Honningsvag,NO,1562543846,70.98,25.97,47.74,100,74,3.96
24,Ushuaia,AR,1562543847,-54.81,-68.31,37.4,0,92,6.17
25,Torbay,CA,1562543563,47.66,-52.73,64.4,5,72,10.29
26,Rikitea,PF,1562543766,-23.12,-134.97,71.9,100,82,39.19
27,Radovitskiy,RU,1562543850,55.13,39.8,51.01,20,83,1.99
28,Turbat,PK,1562543852,26.0,63.05,79.13,34,85,2.64
29,Tuktoyaktuk,CA,1562543853,69.44,-133.03,44.6,75,81,9.17
30,Kysyl-Syr,RU,1562543854,63.9,122.77,71.66,21,72,5.48
31,Atuona,PF,1562543856,-9.8,-139.03,80.19,80,74,13.94
32,Narsaq,GL,1562543857,60.91,-46.05,62.6,81,21,38.03
33,Ilam,IR,1562543858,33.64,46.42,73.4,0,25,2.24
34,Anloga,GH,1562543860,5.79,0.9,78.8,75,88,14.99
35,Houlton,US,1562543861,46.13,-67.84,73.4,1,38,9.17
36,Iqaluit,CA,1562543862,63.75,-68.52,44.6,90,93,8.05
37,Fairbanks,US,1562543752,64.84,-147.72,75.99,40,44,3.36
38,Kewanee,US,1562543742,41.25,-89.92,82.4,40,65,4.7
39,Nikolskoye,RU,1562543866,59.7,30.79,53.6,0,81,4.47
40,Hampton,US,1562543867,32.88,-81.13,90.0,1,66,4.7
41,Terrace,CA,1562543868,54.52,-128.61,78.8,75,50,11.41
42,Flinders,AU,1562543870,-34.58,150.85,61.0,0,62,6.93
43,Hermanus,ZA,1562543764,-34.42,19.24,61.0,39,72,8.99
44,Waingapu,ID,1562543872,-9.65,120.26,72.65,27,75,14.65
45,Moussoro,TD,1562543874,13.64,16.49,90.87,72,44,10.67
46,Neiafu,TO,1562543875,-18.65,-173.98,80.6,75,78,6.93
47,Kodiak,US,1562543876,39.95,-94.76,87.8,1,21,5.93
48,New Norfolk,AU,1562543877,-42.78,147.06,48.99,75,87,8.05
49,Puerto Narino,CO,1562543879,-3.77,-70.38,69.8,90,88,2.24
50,Jumla,NP,1562543880,29.28,82.18,53.18,60,95,2.93
51,Tongzi,CN,1562543881,28.78,105.09,68.01,100,97,8.57
52,Yatou,CM,1562543883,3.63,9.81,77.28,100,85,19.48
53,Broken Hill,AU,1562543884,-31.97,141.45,48.2,14,87,9.17
54,Hualmay,PE,1562543885,-11.1,-77.61,63.17,0,87,9.86
55,Tasiilaq,GL,1562543886,65.61,-37.64,51.8,1,50,4.7
56,Castro,CL,1562543888,-42.48,-73.76,50.0,90,93,21.92
57,Yabelo,ET,1562543889,4.89,38.09,60.61,81,83,7.58
58,Tiksi,RU,1562543890,71.64,128.87,46.43,97,72,8.43
59,Lompoc,US,1562543892,34.64,-120.46,71.01,90,82,12.75
60,Wuan,CN,1562543893,31.68,112.0,77.08,100,57,5.75
61,Zhangye,CN,1562543738,38.94,100.46,57.28,80,56,0.47
62,Valkeala,FI,1562543896,60.94,26.8,55.4,90,100,4.7
63,Ahipara,NZ,1562543897,-35.17,173.16,56.94,59,68,18.88
64,Barra da Estiva,BR,1562543898,-13.63,-41.33,63.58,44,92,7.31
65,Mahanoro,MG,1562543899,-19.9,48.8,63.53,1,98,1.72
66,Carnot,CF,1562543901,4.94,15.87,69.29,100,92,3.06
67,Dingle,PH,1562543902,11.0,122.67,81.18,1,76,3.96
68,Sur,OM,1562543739,22.57,59.53,86.93,13,49,2.59
69,Ciudad Guayana,VE,1562543905,8.32,-62.69,78.01,100,89,8.52
70,Barrow,AR,1562543906,-38.31,-60.23,47.11,100,73,13.15
71,Deputatskiy,RU,1562543907,69.3,139.9,62.07,0,52,6.82
72,Mchinji,MW,1562543909,-13.8,32.89,53.95,0,53,1.36
73,San Jose,HN,1562543741,14.25,-87.96,77.0,20,69,10.29
74,Tapejara,BR,1562543911,-23.73,-52.87,45.54,0,65,5.26
75,Avarua,CK,1562543912,-21.21,-159.78,77.0,99,65,11.41
76,Kutum,SD,1562543914,14.2,24.66,76.88,100,52,6.04
77,Marzuq,YE,1562543915,14.4,46.47,83.02,92,33,11.03
78,Geraldton,CA,1562543664,49.72,-86.95,71.6,75,43,10.29
79,Saint-Jovite,CA,1562543681,46.12,-74.6,75.2,5,50,4.7
80,Umm Kaddadah,SD,1562543919,13.6,26.69,79.98,100,58,16.02
81,Cape Town,ZA,1562543884,-33.93,18.42,61.0,75,87,11.41
82,Talnakh,RU,1562543921,69.49,88.39,48.2,40,87,29.08
83,Carnarvon,ZA,1562543922,-30.97,22.13,42.63,32,80,7.78
84,Kaspiysk,RU,1562543924,42.88,47.64,69.01,1,77,4.47
85,Koygorodok,RU,1562543925,60.44,51.01,48.57,100,97,3.74
86,Ponta do Sol,BR,1562543926,-20.63,-46.0,50.22,0,63,4.0
87,Bambous Virieux,MU,1562543928,-20.34,57.76,69.01,75,94,2.24
88,Lata,IN,1562543929,30.78,78.62,41.08,32,88,2.1
89,Tual,ID,1562543930,-5.67,132.75,78.45,68,82,21.12
90,Maceio,BR,1562543931,-9.67,-35.74,77.0,75,78,4.7
91,Vaini,IN,1562543933,15.34,74.49,78.27,70,88,8.55
92,Mayumba,GA,1562543934,-3.44,10.65,72.74,74,88,6.87
93,Belmonte,PT,1562543760,40.36,-7.35,54.81,20,96,2.28
94,Loveland,US,1562543936,40.4,-105.08,89.6,1,29,6.93
95,Canton,US,1562543647,40.8,-81.38,77.0,75,73,9.17
96,Sao Jose da Coroa Grande,BR,1562543870,-8.9,-35.15,70.8,2,92,2.39
97,Longyearbyen,NO,1562543940,78.22,15.63,51.8,0,71,6.93
98,Lubao,CD,1562543941,-5.39,25.75,70.74,36,55,2.8
99,Rocha,UY,1562543943,-34.48,-54.34,40.11,53,80,3.71
100,Port Elizabeth,US,1562543944,39.31,-74.98,82.4,75,83,9.17
101,Itaqui,BR,1562543945,-29.13,-56.55,43.29,33,76,6.78
102,Salalah,OM,1562543946,17.01,54.1,84.2,75,83,2.24
103,Kieta,PG,1562543948,-6.22,155.63,80.95,100,78,4.68
104,Takaka,NZ,1562543949,-40.86,172.81,57.99,44,60,3.0
105,Quetta,PK,1562543950,30.19,67.02,68.53,0,17,4.54
106,Marsabit,KE,1562543952,2.34,37.99,77.78,72,60,16.98
107,Khatanga,RU,1562543953,71.98,102.47,48.87,100,76,16.2
108,Kruisfontein,ZA,1562543954,-34.0,24.73,49.38,14,84,9.6
109,Haines Junction,CA,1562543956,60.75,-137.51,69.16,100,38,5.73
110,Burnie,AU,1562543957,-41.05,145.91,48.99,98,95,1.01
111,Lerwick,GB,1562543958,60.15,-1.15,48.2,100,87,2.24
112,Punta Arenas,CL,1562543959,-53.16,-70.91,39.2,40,93,8.05
113,Sinnamary,GF,1562543961,5.38,-52.96,81.08,46,78,11.32
114,Vaitape,PF,1562543962,-16.52,-151.75,79.06,81,84,14.56
115,Kiama,AU,1562543963,-34.67,150.86,63.0,0,62,6.93
116,Yuyao,CN,1562543965,30.04,121.15,84.99,100,78,4.47
117,Kommunisticheskiy,RU,1562543966,61.68,64.48,47.36,98,93,4.54
118,Nanortalik,GL,1562543967,60.14,-45.24,48.8,82,58,11.16
119,Ratnagiri,IN,1562543968,16.98,73.3,82.14,51,84,19.33
120,Zhezkazgan,KZ,1562543970,47.8,67.71,71.52,51,33,10.69
121,Polczyn-Zdroj,PL,1562543971,53.76,16.1,60.01,66,87,10.74
122,Batagay,RU,1562543972,67.65,134.64,71.95,68,36,8.12
123,Nishihara,JP,1562543973,35.74,139.53,72.0,75,77,5.82
124,Caravelas,BR,1562543975,-17.73,-39.27,71.34,77,77,21.07
125,Uray,RU,1562543976,60.13,64.8,49.23,100,93,2.51
126,Pizarro,CO,1562543977,4.95,-77.37,81.15,96,82,13.29
127,Vila Velha,BR,1562543979,-3.71,-38.6,86.0,0,74,4.7
128,Saldanha,PT,1562543980,41.42,-6.55,64.08,42,78,3.31
129,Kjollefjord,NO,1562543981,70.95,27.35,47.97,100,71,7.27
130,Mastic Beach,US,1562543982,40.77,-72.85,77.0,1,68,3.36
131,Impfondo,CD,1562543984,1.62,18.06,70.15,100,97,2.86
132,Hasaki,JP,1562543985,35.73,140.83,68.0,75,93,14.99
133,Norman Wells,CA,1562543986,65.28,-126.83,59.0,75,54,10.29
134,Kapaa,US,1562543922,22.08,-159.32,84.2,40,66,13.87
135,Souillac,FR,1562543989,45.6,-0.6,68.0,0,88,4.7
136,Coahuayana,MX,1562543990,18.62,-100.35,85.81,20,65,2.35
137,Padalarang,ID,1562543991,-6.85,107.48,66.89,11,95,1.01
138,Esmeraldas,BR,1562543992,-19.76,-44.31,59.0,0,62,11.41
139,Luanda,AO,1562543994,-8.83,13.24,69.8,75,94,4.7
140,Hithadhoo,MV,1562543995,-0.6,73.08,83.69,0,77,12.5
141,Havoysund,NO,1562543996,71.0,24.66,51.8,0,57,11.41
142,Bara,NG,1562543998,10.41,10.6,76.74,67,84,3.53
143,Karratha,AU,1562543999,-20.74,116.85,68.3,0,49,5.64
144,Savannakhet,TH,1562544000,16.57,104.76,76.59,100,87,11.72
145,Hilo,US,1562543726,19.71,-155.08,87.01,1,58,11.41
146,Te Anau,NZ,1562544004,-45.41,167.72,40.31,68,66,4.5
147,Kondinskoye,RU,1562544006,59.65,67.41,52.67,96,90,6.06
148,Esperance,AU,1562544007,-33.86,121.89,42.8,0,87,8.05
149,Juxtlahuaca,MX,1562544008,17.43,-99.15,70.87,64,83,2.71
150,Kodinar,IN,1562544010,20.79,70.7,82.23,98,79,11.07
151,Shinuhayr,AM,1562544011,39.43,46.32,47.97,14,94,3.69
152,Shache,CN,1562544012,38.42,77.24,82.99,97,77,4.5
153,Buraydah,SA,1562544014,26.33,43.97,89.6,20,24,4.7
154,Manali,IN,1562544015,32.25,77.19,40.45,35,82,3.09
155,Liverpool,GB,1562543863,53.41,-2.98,55.99,40,66,3.36
156,Willowmore,ZA,1562544017,-33.3,23.49,40.25,69,93,0.76
157,Dikson,RU,1562544019,73.51,80.55,32.8,23,93,17.63
158,Monrovia,LR,1562544020,6.33,-10.8,77.0,75,94,10.89
159,Mount Gambier,AU,1562544021,-37.83,140.78,44.6,0,100,9.17
160,Kloulklubed,PW,1562544022,7.04,134.26,78.8,75,94,3.36
161,Mackay,CA,1562544024,53.65,-115.58,57.2,90,82,5.82
162,San Patricio,PY,1562544025,-26.98,-56.83,43.13,5,77,3.44
163,Yining,CN,1562544026,29.04,114.56,70.04,100,98,2.55
164,Hobart,AU,1562544019,-42.88,147.33,48.99,75,87,8.05
165,Chuy,UY,1562544029,-33.69,-53.46,43.47,36,73,5.26
166,Hambantota,LK,1562544030,6.12,81.12,82.86,17,81,16.98
167,Pevek,RU,1562544031,69.7,170.27,46.37,99,73,16.6
168,Pimentel,BR,1562544033,-3.7,-45.5,72.78,66,98,2.24
169,Chokurdakh,RU,1562544034,70.62,147.9,53.3,96,70,10.16
170,Severo-Kurilsk,RU,1562544035,50.68,156.12,42.23,100,98,3.8
171,Nome,US,1562544036,30.04,-94.42,93.0,1,74,5.82
172,Alofi,NU,1562544038,-19.06,-169.92,80.6,32,57,12.75
173,Arlit,NE,1562544039,18.74,7.39,92.34,0,7,10.2
174,Koutiala,ML,1562544040,12.39,-5.46,85.13,61,55,8.52
175,Muros,ES,1562544041,42.77,-9.06,66.0,75,93,6.93
176,Rawson,AR,1562544043,-43.3,-65.11,47.31,87,65,10.85
177,Nagpur,IN,1562543820,21.15,79.08,78.8,75,94,5.82
178,Pangoa,PE,1562544045,-12.12,-73.0,63.94,0,81,1.83
179,Portel,BR,1562544046,-1.94,-50.82,73.57,83,97,1.95
180,Cidreira,BR,1562544048,-30.17,-50.22,43.78,15,89,1.54
181,Zyryanka,RU,1562544049,65.73,150.89,69.43,95,46,14.16
182,Sorong,ID,1562544050,-0.86,131.25,77.62,73,89,7.02
183,Saint George,GR,1562544051,39.45,22.34,75.2,0,60,3.24
184,Prince Rupert,CA,1562544053,54.32,-130.32,62.6,75,77,9.17
185,Hofn,IS,1562544054,64.25,-15.21,37.08,100,94,5.44
186,Kyren,RU,1562544055,51.68,102.13,58.4,17,46,4.25
187,Goderich,CA,1562544057,43.74,-81.71,73.0,5,70,17.02
188,Arrifes,PT,1562544059,37.77,-25.7,68.0,75,94,4.7
189,North Platte,US,1562544054,41.12,-100.77,82.99,75,58,11.41
190,Robertsport,LR,1562544061,6.75,-11.37,76.67,100,88,9.48
191,Cabo San Lucas,MX,1562543852,22.89,-109.91,97.0,90,35,10.29
192,Port Alfred,ZA,1562544034,-33.59,26.89,57.0,0,77,4.0
193,Banda Aceh,ID,1562544065,5.56,95.32,83.65,92,68,7.52
194,Fidenza,IT,1562544066,44.86,10.07,73.4,0,69,4.7
195,Moroni,GR,1562544067,35.09,24.92,75.0,0,60,6.93
196,Dejen,ET,1562544068,10.16,38.15,63.22,27,81,1.77
197,Punta Cardon,VE,1562544070,11.61,-70.22,79.49,89,81,32.53
198,Gizo,IL,1562544071,31.8,34.94,78.8,40,78,8.05
199,Namatanai,PG,1562544072,-3.66,152.44,80.09,83,80,17.09
200,Vao,EE,1562544074,59.1,26.19,50.22,29,91,4.14
201,Kawalu,ID,1562544075,-7.38,108.21,67.88,83,95,3.47
202,Victoria,BN,1562543892,5.28,115.24,80.6,75,94,3.36
203,Weihe,CN,1562544078,32.99,105.33,56.92,100,96,1.19
204,Coolum Beach,AU,1562544079,-26.53,153.09,64.99,7,80,1.99
205,Mahebourg,MU,1562544080,-20.41,57.7,69.01,75,94,2.24
206,Luderitz,NA,1562544081,-26.65,15.16,66.2,0,59,17.22
207,Nokaneng,BW,1562544083,-19.66,22.19,53.82,0,16,2.91
208,Sitka,US,1562544084,37.17,-99.65,84.0,51,65,1.99
209,Touros,BR,1562543943,-5.2,-35.46,77.0,40,88,5.82
210,Bucosnita,RO,1562544087,45.3,22.27,61.46,94,98,4.09
211,Makakilo City,US,1562544088,21.35,-158.09,89.6,75,61,12.75
212,Xai-Xai,MZ,1562544089,-25.04,33.64,69.3,24,73,10.65
213,Kavieng,PG,1562544091,-2.57,150.8,83.38,0,71,4.38
214,Kanchanaburi,TH,1562544092,14.03,99.53,76.31,100,88,2.48
215,Charters Towers,AU,1562544093,-20.07,146.27,67.16,100,85,11.88
216,Alta Floresta,BR,1562544094,-9.87,-56.08,73.05,0,53,2.51
217,Kavaratti,IN,1562544096,10.57,72.64,84.39,52,78,19.28
218,Vila Franca do Campo,PT,1562544097,37.72,-25.43,68.0,75,94,4.7
219,Mehamn,NO,1562544098,71.03,27.85,46.16,100,73,6.33
220,Sakaiminato,JP,1562544099,35.55,133.23,71.6,75,78,1.12
221,Krasnoslobodsk,RU,1562544101,54.42,43.79,55.07,69,88,4.7
222,Zhanaozen,KZ,1562544102,43.35,52.85,77.08,0,38,16.06
223,Ostrovnoy,RU,1562544103,68.05,39.51,39.46,53,91,19.15
224,Whitianga,NZ,1562544105,-36.83,175.7,57.0,82,85,7.0
225,Hobyo,SO,1562544106,5.35,48.53,78.09,41,72,19.62
226,Ribeira Grande,PT,1562544107,38.52,-28.7,71.93,82,83,19.82
227,Manta,RO,1562544108,45.1,24.1,62.32,81,90,4.0
228,San Estanislao,PY,1562544110,-24.67,-56.44,47.29,8,71,3.89
229,Presque Isle,US,1562544111,46.68,-68.02,73.4,1,37,9.17
230,Carmen,PH,1562544112,7.36,125.71,82.99,20,88,2.24
231,Cabrero,CL,1562544113,-37.04,-72.4,55.4,87,87,1.12
232,Thompson,CA,1562544115,55.74,-97.86,78.8,90,34,5.82
233,Price,US,1562543879,39.6,-110.81,80.01,1,24,14.99
234,Tecalitlan,MX,1562544117,19.47,-103.3,86.0,40,62,2.08
235,Leningradskiy,RU,1562544119,69.38,178.42,55.26,66,62,10.96
236,Campbell River,CA,1562544120,50.02,-125.24,66.2,75,72,10.29
237,Bam,IR,1562544121,29.11,58.36,64.03,0,21,2.62
238,Kaitangata,NZ,1562544122,-46.28,169.85,44.01,100,55,17.0
239,Pitimbu,BR,1562544124,-7.47,-34.81,75.2,40,94,4.7
240,Bloomfield,US,1562544125,40.75,-92.42,84.2,40,65,6.93
241,Orcopampa,PE,1562544126,-15.27,-72.34,36.36,88,61,6.38
242,Neftcala,AZ,1562543945,39.37,49.25,72.8,0,49,3.38
243,Seoul,KR,1562544129,37.57,126.98,75.2,75,64,3.36
244,Port-Gentil,GA,1562544130,-0.72,8.78,73.4,90,94,9.17
245,Udachnyy,RU,1562544131,66.42,112.4,59.0,75,93,4.47
246,Alihe,CN,1562544133,50.57,123.73,72.27,91,57,3.13
247,Abu Dhabi,AE,1562544103,24.47,54.37,89.6,0,66,4.7
248,Senanga,ZM,1562544136,-16.1,23.3,52.78,0,22,3.58
249,Menongue,AO,1562544137,-14.66,17.68,48.28,0,35,3.44
250,Sokoto,NG,1562544031,13.06,5.24,89.07,13,50,17.16
251,Baglung,NP,1562544139,28.27,83.59,58.07,100,95,1.52
252,Rock Springs,US,1562544026,41.59,-109.2,78.8,1,16,23.73
253,Rauma,FI,1562544009,61.13,21.5,55.4,97,87,6.93
254,Bethel,US,1562544143,60.79,-161.76,86.0,90,45,12.75
255,Graaff-Reinet,ZA,1562544144,-32.25,24.53,48.86,67,64,4.59
256,Lethem,GY,1562544146,3.38,-59.8,80.82,57,68,5.32
257,Cockburn Town,TC,1562543940,21.46,-71.14,82.01,0,78,16.35
258,Kuusamo,FI,1562544017,65.96,29.19,44.6,0,75,4.7
259,Ngunguru,NZ,1562544014,-35.62,174.5,55.99,17,80,8.99
260,Nizhnedevitsk,RU,1562544150,51.55,38.36,59.0,90,93,2.24
261,Noyabrsk,RU,1562544152,63.2,75.45,56.36,100,91,9.69
262,Natal,BR,1562544153,-5.81,-35.21,78.8,75,78,6.93
263,Katsuura,JP,1562544154,33.93,134.5,78.01,75,83,2.24
264,Jerantut,MY,1562544155,3.94,102.37,72.62,55,95,0.85
265,Peniche,PT,1562544157,39.36,-9.38,64.4,20,82,8.05
266,Turtas,RU,1562544158,58.94,69.13,56.07,55,81,7.09
267,Sobolevo,RU,1562544159,54.43,31.9,48.05,0,94,5.64
268,Itapipoca,BR,1562544160,-3.5,-39.58,73.28,19,88,5.35
269,Yar-Sale,RU,1562544162,66.83,70.83,52.6,100,57,17.92
270,Dharchula,IN,1562544163,29.85,80.53,53.63,59,92,1.74
271,Steinbach,CA,1562544164,49.53,-96.69,84.2,40,30,13.87
272,Saint-Philippe,CA,1562544165,45.36,-73.48,75.99,1,36,7.94
273,Mozarlandia,BR,1562544167,-14.74,-50.57,63.76,0,39,5.77
274,Thinadhoo,MV,1562544168,0.53,72.93,83.52,11,75,12.75
275,Anori,BR,1562544169,-3.74,-61.66,73.97,97,96,2.24
276,Qaanaaq,GL,1562543954,77.48,-69.36,45.67,83,58,3.78
277,Wright,US,1562544172,43.75,-105.48,84.2,1,39,16.11
278,Fort Nelson,CA,1562544051,58.81,-122.69,64.4,75,55,2.24
279,Khani,GE,1562544174,41.96,42.96,69.8,75,94,5.82
280,Plerin,FR,1562544176,48.54,-2.78,62.6,40,88,8.05
281,Saint-Joseph,FR,1562544177,43.56,6.97,82.99,0,73,2.24
282,Rio Verde de Mato Grosso,BR,1562544178,-18.92,-54.84,54.45,0,45,7.92
283,Isangel,VU,1562544179,-19.55,169.27,75.2,75,78,6.93
284,Jeremie,HT,1562544181,18.65,-74.12,82.14,91,76,5.3
285,Diffa,NE,1562544102,13.32,12.61,92.38,28,36,13.69
286,Laguna,BZ,1562544145,16.17,-88.94,86.0,40,74,6.93
287,Zhigansk,RU,1562544083,66.77,123.37,55.08,100,96,11.65
288,Raymond,CA,1562544185,49.47,-112.67,71.01,75,55,9.17
289,Centralia,US,1562544187,46.72,-122.96,69.8,90,72,10.29
290,Svetlogorsk,RU,1562544188,53.14,59.15,51.8,15,81,6.71
291,Ulladulla,AU,1562544134,-35.36,150.48,62.01,0,62,6.93
292,Tsarychanka,UA,1562544190,48.94,34.49,64.28,96,96,5.53
293,Karasjok,NO,1562544192,69.47,25.52,50.0,67,61,19.46
294,Colac,AU,1562544019,-38.34,143.59,51.01,90,98,4.27
295,Kostyantynivka,UA,1562544194,48.53,37.71,62.57,62,65,8.7
296,Piranshahr,IR,1562544195,36.7,45.14,51.16,0,82,1.92
297,Walvis Bay,NA,1562544037,-22.95,14.51,60.8,0,82,2.24
298,Moose Factory,CA,1562544198,51.26,-80.61,78.8,1,34,10.29
299,Upernavik,GL,1562544096,72.79,-56.15,44.52,17,68,10.27
300,Borba,BR,1562544200,-4.39,-59.59,74.04,100,96,1.28
301,Halifax,CA,1562543970,44.65,-63.58,71.6,20,53,10.29
302,Coos Bay,US,1562544203,43.37,-124.22,69.01,1,72,23.04
303,Srandakan,ID,1562544119,-7.94,110.25,76.02,97,79,21.14
304,Copacel,RO,1562544205,46.98,22.17,66.2,88,88,2.24
305,Ust-Maya,RU,1562544206,60.42,134.54,61.71,96,71,4.7
306,Coihaique,CL,1562544208,-45.58,-72.07,41.0,90,93,5.82
307,Ust-Kuyga,RU,1562544209,70.0,135.55,70.73,24,35,6.15
308,Mutsu,JP,1562544210,41.29,141.2,71.01,75,72,11.41
309,Mar del Plata,AR,1562544211,-46.43,-67.52,41.48,100,79,6.2
310,Sape,NG,1562544213,8.9,7.51,71.6,40,83,4.7
311,Ojinaga,US,1562544214,29.56,-104.41,93.2,1,28,8.05
312,Airai,TL,1562544216,-8.93,125.41,75.48,43,64,0.98
313,Pisco,PE,1562544217,-13.71,-76.2,71.6,90,30,5.82
314,Sao Filipe,CV,1562544218,14.9,-24.5,72.96,44,80,13.87
315,Mitchell,US,1562544219,43.71,-98.03,84.2,20,51,14.99
316,Narang,PK,1562544221,32.43,73.82,86.0,40,74,4.7
317,Contai,IN,1562544035,21.78,87.75,83.85,100,72,11.86
318,Ursulo Galvan,MX,1562544223,20.6,-97.44,89.6,20,70,11.41
319,Vardo,US,1562544075,39.62,-77.74,84.2,40,66,3.36
320,Cayenne,GF,1562544226,4.94,-52.33,77.0,0,94,3.09
321,Yiyang,CN,1562544227,28.59,112.35,71.3,100,98,2.51
322,Kulhudhuffushi,MV,1562544228,6.62,73.07,83.43,34,79,12.95
323,Balkanabat,TM,1562544229,39.51,54.36,80.46,11,61,9.93
324,Provideniya,RU,1562544231,64.42,-173.23,64.4,0,55,6.71
325,Anqing,CN,1562544232,30.51,117.04,78.79,99,68,3.18
326,Le Vauclin,MQ,1562544233,14.55,-60.84,82.4,75,88,10.29
327,Mindyak,RU,1562544235,54.02,58.79,51.8,25,81,6.71
328,Rome,IT,1562544086,41.89,12.48,80.6,0,69,4.7
329,Sherlovaya Gora,RU,1562544237,50.53,116.31,59.69,21,77,4.25
330,Rybnaya Sloboda,RU,1562544238,55.46,50.14,50.0,0,87,4.47
331,Kropotkin,RU,1562544240,45.43,40.58,65.27,12,56,2.51
332,Harper,US,1562544202,30.3,-99.24,91.4,1,43,10.29
333,Puerto del Rosario,ES,1562544242,28.5,-13.86,71.6,20,78,16.11
334,Andrychow,PL,1562544243,49.85,19.34,60.01,75,62,5.82
335,Carutapera,BR,1562544244,-1.2,-46.02,77.31,86,85,5.61
336,Nizhneangarsk,RU,1562544246,55.78,109.57,60.61,100,55,3.38
337,Chara,GR,1562544247,39.42,22.43,75.2,0,60,3.24
338,Salinopolis,BR,1562544248,-0.61,-47.36,81.53,96,77,13.85
339,Flin Flon,CA,1562544249,54.77,-101.88,64.4,90,93,4.7
340,Boguchany,RU,1562544251,58.38,97.46,67.81,27,60,3.76
341,Husavik,CA,1562544252,50.56,-96.99,82.99,48,24,7.0
342,Netrakona,BD,1562544253,24.88,90.72,80.14,100,92,5.41
343,Karczew,PL,1562544255,52.08,21.25,59.0,20,87,8.05
344,Ilulissat,GL,1562544256,69.22,-51.1,55.4,75,43,2.24
345,Zharkent,KZ,1562544257,44.17,80.0,54.76,0,63,3.18
346,Gravdal,NO,1562544258,59.79,5.78,52.0,43,76,18.34
347,Atambua,ID,1562544171,-9.11,124.89,75.84,36,74,10.69
348,Madruga,CU,1562544261,22.91,-81.86,87.8,20,62,6.93
349,Clyde River,CA,1562544262,70.47,-68.59,35.6,90,100,10.29
350,Nuuk,GL,1562544263,64.17,-51.74,60.8,60,55,9.17
351,Cherskiy,RU,1562544265,68.75,161.3,72.17,65,38,8.1
352,Oranjemund,ZA,1562544121,-28.55,16.43,56.22,11,90,14.12
353,Paamiut,GL,1562544267,61.99,-49.67,47.83,61,72,7.2
354,Fez,MA,1562544268,34.03,-5.02,82.4,40,72,8.05
355,Borovskoy,KZ,1562544270,53.8,64.15,58.05,71,88,6.93
356,Meulaboh,ID,1562544227,4.14,96.13,81.42,92,77,6.11
357,Fare,PF,1562544272,-16.7,-151.02,78.05,69,85,15.68
358,Mkushi,ZM,1562544273,-13.61,29.4,49.61,3,57,2.93
359,Basco,US,1562544274,40.33,-91.2,84.2,90,58,3.36
360,Durban,CA,1562544182,51.93,-101.44,73.32,97,82,11.12
361,Chanute,US,1562544277,37.68,-95.46,87.8,1,62,5.82
362,Horta,BR,1562544278,-10.93,-37.66,78.8,40,74,8.05
363,Wanxian,CN,1562544279,30.8,108.39,67.65,100,96,5.75
364,Berlevag,NO,1562544281,70.86,29.09,44.81,100,84,11.56
365,Richards Bay,ZA,1562544282,-28.77,32.06,67.68,97,61,8.21
366,Batagay-Alyta,RU,1562544283,67.8,130.41,53.21,100,68,4.79
367,Saint-Georges,CA,1562544284,46.12,-70.67,69.01,0,52,1.01
368,Cabedelo,BR,1562544286,-6.97,-34.84,75.2,40,94,4.7
369,Ucluelet,CA,1562544287,48.94,-125.55,66.0,75,82,8.05
370,Shimoda,JP,1562544113,34.7,138.93,79.0,75,82,18.34
371,Kuching,MY,1562544289,1.56,110.34,75.2,75,100,2.24
372,Opuwo,NA,1562544291,-18.06,13.84,48.51,0,51,2.91
373,Sibu,MY,1562544292,2.29,111.83,73.4,75,100,4.07
374,Galle,GN,1562544293,10.08,-12.83,71.23,100,98,2.89
375,Marsa Matruh,EG,1562544294,31.35,27.25,77.0,0,83,9.17
376,Okha,RU,1562544110,53.59,142.95,49.07,100,88,7.34
377,San Quintin,PH,1562544297,17.54,120.52,80.12,97,78,2.86
378,San Matias,BO,1562544298,-16.36,-58.4,62.63,0,37,4.99
379,Klaksvik,FO,1562544148,62.23,-6.59,48.2,59,93,10.29
380,San Pedro,AR,1562544301,-33.68,-59.66,46.99,100,69,1.99
381,Masuda,JP,1562544302,34.68,131.85,75.0,75,94,1.12
382,Bathsheba,BB,1562544303,13.22,-59.52,80.6,40,83,14.99
383,Chiang Mai,TH,1562544305,18.79,98.99,82.99,75,78,4.7
384,Malinovoye Ozero,RU,1562544306,51.68,79.77,62.73,0,61,1.23
385,Cooma,AU,1562544307,-36.24,149.13,44.6,90,100,9.17
386,Hamilton,CA,1562544073,43.26,-79.87,73.99,20,49,12.75
387,Puri,ID,1562544310,-7.54,112.45,75.2,20,88,3.36
388,San Francisco,CO,1562544058,1.17,-76.88,66.2,40,88,3.36
389,Corvallis,US,1562544287,44.56,-123.26,80.6,75,41,6.93
390,Makokou,GA,1562544313,0.56,12.85,66.46,96,98,2.01
391,Port Hardy,CA,1562544314,50.7,-127.42,64.4,75,68,10.29
392,Grindavik,IS,1562544316,63.84,-22.43,50.0,0,76,13.87
393,Poplar Bluff,US,1562544317,36.76,-90.39,91.4,1,46,5.55
394,Adrar,DZ,1562544318,27.87,-0.29,95.0,0,9,10.29
395,Yaan,NG,1562544319,7.38,8.57,73.19,75,90,11.16
396,Ankazoabo,MG,1562544321,-22.29,44.51,55.46,0,92,2.84
397,Alice Springs,AU,1562544322,-23.7,133.88,55.4,0,58,5.82
398,Aklavik,CA,1562544323,68.22,-135.01,55.4,75,54,5.82
399,Pontes e Lacerda,BR,1562544325,-15.23,-59.33,61.02,0,47,4.27
400,Port Macquarie,AU,1562544326,-31.43,152.91,55.0,90,93,6.93
401,Korop,UA,1562544327,51.57,32.95,58.14,88,93,2.51
402,Koslan,RU,1562544328,63.46,48.9,47.29,82,90,5.93
403,Tautira,PF,1562544330,-17.73,-149.15,84.2,20,66,5.82
404,Nelson Bay,AU,1562544331,-32.72,152.14,57.0,0,93,6.93
405,Kimbe,PG,1562544332,-5.56,150.15,85.4,0,57,7.65
406,Viedma,AR,1562544333,-40.81,-62.99,49.13,100,61,13.53
407,Benguela,AO,1562544335,-12.58,13.4,70.04,38,89,12.03
408,Gejiu,CN,1562544336,23.36,103.16,64.88,100,92,6.38
409,Turukhansk,RU,1562544337,65.8,87.96,58.18,100,92,7.74
410,Kostomuksha,RU,1562544338,64.59,30.6,43.42,87,87,10.16
411,Ballina,IE,1562544340,54.11,-9.15,57.0,73,90,4.25
412,Urucui,BR,1562544341,-7.23,-44.56,75.62,10,72,3.33
413,Masterton,NZ,1562544342,-40.95,175.66,60.01,32,57,5.99
414,Nemuro,JP,1562544344,43.32,145.57,59.0,75,93,3.36
415,San Cristobal,HN,1562544059,14.68,-86.92,67.9,98,95,6.29
416,Puerto Ayacucho,CO,1562544346,5.66,-67.63,82.4,75,78,4.59
417,Alugan,PH,1562544347,12.22,125.48,83.88,24,72,3.2
418,Camargo,MX,1562544349,27.69,-105.17,88.73,55,27,1.9
419,Krivosheino,RU,1562544350,57.34,83.93,60.07,0,79,10.6
420,Mount Isa,AU,1562544351,-20.73,139.49,68.0,39,68,9.17
421,Pearl Lagoon,NI,1562544352,12.34,-83.67,80.6,75,94,9.17
422,Tilichiki,RU,1562544354,60.47,166.1,61.6,88,58,2.3
423,Xining,CN,1562544355,36.62,101.77,47.49,95,88,4.36
424,Bilma,NE,1562544356,18.69,12.92,93.37,0,8,6.17
425,Roald,NO,1562544357,62.58,6.12,53.6,0,76,8.05
426,Zalantun,CN,1562544359,48.0,122.72,70.73,70,63,3.15
427,Voh,NC,1562544105,-20.95,164.69,69.03,1,66,14.34
428,Palimbang,PH,1562544361,14.9,120.78,87.01,75,83,3.36
429,Denpasar,ID,1562544362,-8.65,115.22,73.4,20,88,4.7
430,Goure,NE,1562544364,13.98,10.27,88.69,100,40,19.57
431,Rio Grande,BR,1562544190,-32.03,-52.1,40.59,18,82,3.67
432,Yagodnoye,RU,1562544366,62.52,149.63,56.78,26,52,1.19
433,Clearwater,US,1562544367,27.97,-82.8,87.01,75,83,5.82
434,Sudogda,RU,1562544369,55.95,40.86,47.85,1,96,3.8
435,Sao Joao da Barra,BR,1562544370,-21.64,-41.05,64.4,0,68,13.87
436,Juarez,AR,1562544247,-38.95,-67.92,42.8,0,87,1.12
437,Edd,ER,1562544372,13.93,41.69,92.25,70,24,3.2
438,Lazaro Cardenas,MX,1562544374,28.39,-105.62,87.8,75,25,8.05
439,Tezu,IN,1562544375,27.93,96.16,71.9,100,97,3.0
440,Copiapo,CL,1562544376,-27.37,-70.33,55.4,40,82,10.29
441,Moron,HT,1562544377,18.56,-74.26,82.14,91,76,5.3
442,Baymak,RU,1562544379,52.6,58.31,47.49,17,97,5.77
443,Cam Ranh,VN,1562544380,11.92,109.15,86.0,20,70,2.24
444,Birjand,IR,1562544381,32.86,59.22,77.0,0,15,6.93
445,Sechura,PE,1562544383,-5.56,-80.82,64.75,45,88,11.81
446,Yashkul,RU,1562544384,46.17,45.34,74.13,54,43,5.03
447,Beringovskiy,RU,1562544385,63.05,179.32,60.39,74,65,5.64
448,Iquique,CL,1562544348,-20.22,-70.14,60.8,75,77,14.99
449,Bubaque,GW,1562544388,11.28,-15.83,80.43,61,83,12.12
450,Bud,NO,1562544111,62.91,6.91,53.6,0,76,8.05
451,Bollnas,SE,1562544390,61.35,16.39,49.76,56,83,7.4
452,Sarangani,PH,1562544392,5.4,125.46,82.55,7,65,1.41
453,Palu,ID,1562544393,-0.9,119.87,79.82,35,75,1.86
454,Bandarbeyla,SO,1562544394,9.49,50.81,81.36,77,58,25.72
455,Pinotepa de Don Luis,MX,1562544395,16.43,-97.98,86.35,4,56,5.75
456,Zhengjiatun,CN,1562544397,43.51,123.51,79.15,82,58,11.1
457,Kirakira,SB,1562544398,-10.46,161.92,82.37,11,79,12.59
458,Khomutovka,RU,1562544399,51.92,34.56,56.38,78,95,3.15
459,Ishinomaki,JP,1562544400,38.42,141.3,64.4,75,72,3.36
460,Kahta,TR,1562544402,37.78,38.62,77.0,75,33,9.17
461,Honiara,SB,1562544403,-9.43,159.96,86.0,75,74,9.17
462,Chenghai,CN,1562544404,23.46,116.77,82.4,40,94,6.2
463,Koumac,NC,1562544406,-20.56,164.28,69.92,74,72,11.52
464,Plettenberg Bay,ZA,1562544407,-34.05,23.37,50.96,57,85,5.53
465,Yamada,JP,1562544408,36.58,137.08,75.99,75,83,2.24
466,Orange,AU,1562544309,-33.28,149.1,48.99,99,95,5.01
467,Novo Aripuana,BR,1562544411,-5.12,-60.38,73.25,100,95,2.1
468,Fortuna,ES,1562544412,38.18,-1.13,81.0,0,69,11.41
469,Tazovskiy,RU,1562544414,67.47,78.7,45.63,93,73,16.69
470,Ordzhonikidze,UA,1562544415,44.96,35.36,63.92,0,73,3.47
471,Igrim,RU,1562544416,63.19,64.42,49.95,85,77,4.88
472,Sao Caetano de Odivelas,BR,1562544120,-0.75,-48.02,81.62,100,79,13.94
473,Ambunti,PG,1562544419,-4.22,142.82,79.8,99,80,2.53
474,Kailua,US,1562544208,21.39,-157.74,89.6,40,74,12.75
475,Dengzhou,CN,1562544421,32.69,112.08,75.89,100,58,14.18
476,Maravilha,BR,1562544422,-26.76,-53.17,48.2,0,76,5.82
477,Pacifica,US,1562544212,37.61,-122.49,66.99,90,87,6.93
478,Ornskoldsvik,SE,1562544425,63.29,18.72,55.4,100,93,3.36
479,Yibin,CN,1562544426,28.77,104.64,67.54,100,98,4.65
480,Sorland,NO,1562544427,67.67,12.69,51.8,40,87,12.75
481,Zaysan,KZ,1562544429,47.47,84.87,68.49,1,53,5.68
482,Amga,RU,1562544430,60.89,131.98,71.36,27,52,7.78
483,Non Sung,TH,1562544431,15.18,102.26,84.0,20,88,4.7
484,Shingu,JP,1562544432,33.72,135.99,77.0,40,78,4.7
485,Avera,US,1562544434,33.19,-82.53,93.99,40,59,9.17
486,Ketchikan,US,1562544435,55.34,-131.65,57.62,100,92,11.95
487,Kolondieba,ML,1562544436,11.09,-6.89,72.71,100,89,5.46
488,Khasan,RU,1562544437,42.43,130.64,71.46,7,68,1.99
489,Tevaitoa,PF,1562544439,-16.78,-151.5,78.05,69,85,15.68
490,Novoagansk,RU,1562544440,61.94,76.66,55.84,100,90,10.8
491,Talcahuano,CL,1562544441,-36.72,-73.12,55.4,90,82,9.17
492,Shenjiamen,CN,1562544443,29.96,122.3,77.12,83,76,7.34
493,Henties Bay,NA,1562544163,-22.12,14.28,51.01,0,95,5.99
494,Santa Vitoria,BR,1562544445,-7.82,-67.03,69.27,59,66,3.11
495,Coquimbo,CL,1562544446,-29.95,-71.34,57.0,0,87,4.7
496,Elat,CM,1562544448,2.91,11.16,67.2,100,99,3.04
497,Khanpur,PK,1562544449,28.65,70.66,88.73,0,57,16.06
498,Los Llanos de Aridane,ES,1562544219,28.66,-17.92,69.8,0,64,9.17
499,Leh,IN,1562544451,34.16,77.58,36.69,0,56,3.49
500,Santa Cruz,BR,1562544453,-6.22,-36.02,71.0,18,88,9.84
501,Warmbad,DE,1562544454,50.67,13.08,57.0,14,58,4.7
502,Eureka,US,1562544455,40.8,-124.16,66.99,40,68,16.11
503,Murgab,TM,1562544456,37.5,61.97,82.4,0,45,10.11
504,Xuddur,SO,1562544458,4.12,43.89,72.31,100,80,13.96
505,Raisen,IN,1562544459,23.33,77.78,74.9,100,93,14.94
506,Brooks,CA,1562544460,50.57,-111.89,75.0,75,47,8.19
507,Itacoatiara,BR,1562544462,-3.14,-58.44,74.56,87,93,2.28
508,Lorengau,PG,1562544463,-2.02,147.27,82.41,63,76,13.04
509,Kokstad,ZA,1562544464,-30.55,29.42,39.17,0,85,4.0
510,Ranot,TH,1562544466,7.78,100.32,77.49,61,86,6.78
511,Panjab,AF,1562544467,34.38,67.02,44.21,0,46,6.11
512,Kenai,US,1562544468,60.55,-151.26,82.99,1,56,6.93
513,Golkoy,TR,1562544469,40.69,37.62,73.4,75,73,6.89
514,Katobu,ID,1562544471,-4.94,122.53,77.49,55,80,1.74
515,Beyla,GN,1562544472,8.69,-8.65,68.48,97,99,2.08
516,Homer,US,1562544473,59.64,-151.54,82.99,1,72,10.29
517,Pleven,BG,1562544474,43.41,24.62,68.0,75,82,11.41
518,Nasice,HR,1562544476,45.49,18.09,64.99,0,93,4.7
519,Canico,PT,1562544477,32.63,-16.85,69.8,40,68,9.17
520,Jalu,LY,1562544478,29.03,21.55,78.12,0,51,9.98
521,Ofunato,JP,1562544480,39.11,141.75,64.4,75,72,2.24
522,Port Blair,IN,1562544226,11.67,92.75,84.06,100,80,18.79
523,Petauke,ZM,1562544482,-14.25,31.33,57.42,0,52,2.95
524,Buin,CL,1562544483,-33.73,-70.74,51.8,100,81,5.82
525,Kondagaon,IN,1562544485,19.59,81.66,72.26,98,94,6.04
526,Matara,BI,1562544403,-3.48,29.48,51.18,94,92,1.5
527,Sambava,MG,1562544487,-14.27,50.17,70.06,89,84,1.43
528,Bernay,FR,1562544488,49.09,0.6,61.0,0,82,5.82
529,Yulara,AU,1562544490,-25.24,130.99,48.2,0,61,4.7
530,Half Moon Bay,US,1562544491,37.46,-122.43,68.0,90,87,6.93
531,Antalaha,MG,1562544492,-14.9,50.28,65.54,72,93,3.04
532,Lalitpur,IN,1562544493,24.69,78.42,79.96,100,81,16.31
533,Pacific Grove,US,1562544317,36.62,-121.92,79.0,40,67,12.75
534,Hervey Bay,AU,1562544496,-25.3,152.85,64.4,0,72,8.05
535,Launceston,AU,1562544497,-41.43,147.14,45.0,90,100,3.36
536,Russell,US,1562544498,38.9,-98.86,87.8,1,45,13.87
537,Abasolo,MX,1562544500,20.45,-101.53,84.2,75,26,10.29
538,Lafiagi,NG,1562544501,8.85,5.42,75.33,62,91,6.08
539,High Level,CA,1562544327,58.52,-117.13,68.0,75,34,10.29
540,Acari,BR,1562544503,-6.44,-36.64,77.24,83,71,13.53
541,Usinsk,RU,1562544505,66.0,57.56,49.56,0,66,16.55
542,Maragogi,BR,1562544506,-9.01,-35.22,70.8,2,92,2.39
543,Oistins,BB,1562544507,13.07,-59.53,80.6,40,83,14.99
544,Winona,CA,1562544509,43.21,-79.65,73.99,20,49,12.75
545,The Valley,AI,1562544510,18.22,-63.06,82.4,40,69,13.87
546,Simbahan,PH,1562544511,6.3,120.58,83.0,49,76,9.19
547,Kensington,CA,1562544512,46.44,-63.64,69.8,20,56,5.82
548,Kremenki,RU,1562544514,54.51,48.87,57.2,60,82,6.71
549,Chapais,CA,1562544515,49.78,-74.86,71.6,1,30,8.05
550,Port Moresby,PG,1562544516,-9.47,147.16,82.4,40,74,11.41
551,Todos Santos,MX,1562544518,23.45,-110.23,97.0,90,35,10.29
552,Tessalit,ML,1562544519,20.2,1.01,88.37,40,24,5.06
553,Mahdasht,IR,1562544520,35.73,50.81,75.2,40,41,11.41
554,Crotone,IT,1562544522,39.09,17.12,78.41,0,38,4.92
555,Ancud,CL,1562544523,-41.87,-73.83,50.0,90,93,21.92
556,Dudinka,RU,1562544524,69.41,86.18,48.2,40,87,29.08
557,Betafo,MG,1562544525,-19.84,46.86,54.49,0,81,3.42
558,Ixtapa,MX,1562544527,20.71,-105.21,87.01,75,58,16.11
559,Marovoay,MG,1562544528,-16.11,46.64,75.2,0,83,4.7
560,Bihariganj,IN,1562544529,25.73,86.98,81.36,100,86,15.37
561,Nirsa,IN,1562544531,23.78,86.71,81.0,100,52,7.2
562,Dong Xoai,VN,1562544532,11.53,106.92,77.73,83,95,3.8
563,Antofagasta,CL,1562544308,-23.65,-70.4,57.2,75,76,11.41
564,Balikpapan,ID,1562544534,-1.24,116.86,77.0,40,94,9.17
565,Okhotsk,RU,1562544535,59.36,143.24,57.3,1,69,6.49
566,Pontivy,FR,1562544537,48.06,-2.97,63.0,85,87,12.75
567,Oxford,US,1562544538,33.61,-85.83,82.99,90,83,5.79
568,Aden,YE,1562544368,12.79,45.03,87.11,96,70,4.59
569,Guerrero Negro,MX,1562544541,27.97,-114.04,64.61,0,85,11.81
570,Juneau,US,1562544542,58.3,-134.42,80.6,1,42,6.93
571,Sirari,KE,1562544543,-1.25,34.48,63.42,79,90,4.05
572,Esil,KZ,1562544545,51.96,66.41,62.91,19,51,11.16
573,Namibe,AO,1562544546,-15.19,12.15,68.28,52,89,10.22
574,Tyukhtet,RU,1562544547,56.54,89.31,59.33,0,83,6.11
575,Toro,ES,1562544549,41.52,-5.39,66.99,24,82,6.93
576,Skjervoy,NO,1562544307,70.03,20.97,51.23,100,71,17.2
577,Gobabis,NA,1562544551,-22.45,18.97,50.0,0,18,4.85
578,Korem,ET,1562544552,12.51,39.52,62.46,66,66,3.24
579,Kaduna,NG,1562544554,10.52,7.44,71.32,98,94,3.2
580,Pirovskoye,RU,1562544555,57.63,92.27,58.94,27,89,8.52
581,Broome,GB,1562544556,52.47,1.45,57.99,79,87,3.36
582,Mortka,RU,1562544557,59.33,66.02,53.01,80,93,4.18
583,Frolovo,RU,1562544559,49.76,43.65,62.88,28,51,8.97
584,Itarema,BR,1562544560,-2.92,-39.92,74.51,15,87,5.12
585,Radhanpur,IN,1562544561,23.83,71.61,84.35,89,70,13.76
586,Srednekolymsk,RU,1562544562,67.46,153.71,70.37,61,41,7.16
587,Udhampur,IN,1562544564,32.92,75.13,86.0,40,74,2.24
588,Soligalich,RU,1562544565,59.08,42.29,51.02,100,98,3.76
589,Gryfino,PL,1562544566,53.25,14.49,53.6,0,76,10.29
590,Vung Tau,VN,1562544567,10.35,107.08,80.27,100,88,7.65
591,Pervomayskiy,RU,1562544569,53.24,40.29,51.12,66,95,4.34
592,Araouane,ML,1562544570,18.9,-3.53,99.04,70,22,13.33
593,Mount Barker,AU,1562544571,-35.06,138.86,54.0,75,93,8.05
594,Ola,RU,1562544573,59.58,151.3,49.05,98,86,11.9
